{"type":"FeatureCollection", "features": [
{"type":"Feature","geometry":{"type":"Point","coordinates":[12702684.460261011,2595384.2293902733]},"properties":{"name":"山厦社区南油花园","date":"2020/2/7 0:00:00","address":"深圳市龙岗区平龙西路132号","longitude":114.110156,"latitude":22.69673,"F6":"","F7":""}},
{"type":"Feature","geometry":{"type":"Point","coordinates":[12709331.569695259,2588884.027352578]},"properties":{"name":"卓然居","date":"2020/2/7 0:00:00","address":"横岗街道六约社区红棉路","longitude":114.169868,"latitude":22.642849,"F6":"","F7":""}},
{"type":"Feature","geometry":{"type":"Point","coordinates":[12697269.768909335,2585113.388136323]},"properties":{"name":"家和花园南区","date":"2020/2/7 0:00:00","address":"五和南路72号","longitude":114.061515,"latitude":22.611584,"F6":"","F7":""}},
{"type":"Feature","geometry":{"type":"Point","coordinates":[12719649.995935868,2598002.235124724]},"properties":{"name":"远洋新干线君域花园","date":"2020/2/7 0:00:00","address":"广东省深圳市龙岗区南联社区远洋新干线6-10栋君域花园","longitude":114.26256,"latitude":22.718425,"F6":"","F7":""}},
{"type":"Feature","geometry":{"type":"Point","coordinates":[12724002.699345376,2604657.3019695426]},"properties":{"name":"鼎尚华庭","date":"2020/2/7 0:00:00","address":"广东省深圳市龙岗区吉祥路3","longitude":114.301661,"latitude":22.773559,"F6":"","F7":""}},
{"type":"Feature","geometry":{"type":"Point","coordinates":[12698812.76837122,2589837.1646577367]},"properties":{"name":"雪象花园新村","date":"2020/2/7 0:00:00","address":"广东省深圳市龙岗区雪岗南路","longitude":114.075376,"latitude":22.650751,"F6":"","F7":""}},
{"type":"Feature","geometry":{"type":"Point","coordinates":[12697865.216865588,2590563.3323973636]},"properties":{"name":"禾坪岗禾坪路5号","date":"2020/2/7 0:00:00","address":"禾坪岗禾坪路5号","longitude":114.066864,"latitude":22.656771,"F6":"","F7":""}},
{"type":"Feature","geometry":{"type":"Point","coordinates":[12689250.869390042,2582710.3468684806]},"properties":{"name":"水木丹华","date":"2020/2/7 0:00:00","address":"深圳市南山区学苑大道1227号","longitude":113.98948,"latitude":22.591655,"F6":"","F7":""}},
{"type":"Feature","geometry":{"type":"Point","coordinates":[12687867.279438972,2586380.4636248476]},"properties":{"name":"大磡1村","date":"2020/2/7 0:00:00","address":"大勘商业街附近","longitude":113.977051,"latitude":22.622091,"F6":"","F7":""}},
{"type":"Feature","geometry":{"type":"Point","coordinates":[12683885.82653126,2580484.3863972]},"properties":{"name":"万科云城一期","date":"2020/2/7 0:00:00","address":"创科路与打石一路交汇处(深圳市第二高级中学对面)","longitude":113.941285,"latitude":22.573192,"F6":"","F7":""}},
{"type":"Feature","geometry":{"type":"Point","coordinates":[12685384.74347479,2581157.4599173847]},"properties":{"name":"汉庭优佳酒店（西丽地铁站店）","date":"2020/2/7 0:00:00","address":"广东省深圳市南山区西丽镇沙河西路3268号","longitude":113.95475,"latitude":22.578775,"F6":"","F7":""}},
{"type":"Feature","geometry":{"type":"Point","coordinates":[12672659.25588476,2603824.155017705]},"properties":{"name":"松新石岗大楼","date":"2020/2/7 0:00:00","address":"深圳市宝安区松新北3巷5号","longitude":113.840435,"latitude":22.766658,"F6":"","F7":""}},
{"type":"Feature","geometry":{"type":"Point","coordinates":[12676918.896199962,2578860.8277774854]},"properties":{"name":"福中福幸福海岸","date":"2020/2/7 0:00:00","address":"罗田路20号","longitude":113.8787,"latitude":22.559724,"F6":"","F7":""}},
{"type":"Feature","geometry":{"type":"Point","coordinates":[12678252.503699668,2580620.8554856298]},"properties":{"name":"鸿景园","date":"2020/2/7 0:00:00","address":"广东省深圳市宝安区宝安34区宝民一路旁弘雅小学后面(宝民一路286号)","longitude":113.89068,"latitude":22.574324,"F6":"","F7":""}},
{"type":"Feature","geometry":{"type":"Point","coordinates":[12673564.50598389,2584785.872040939]},"properties":{"name":"一尚领航优品酒店","date":"2020/2/7 0:00:00","address":"一尚领航优品酒店","longitude":113.848567,"latitude":22.608868,"F6":"","F7":""}},
{"type":"Feature","geometry":{"type":"Point","coordinates":[12695793.115863962,2574828.6556211347]},"properties":{"name":"新洲花园","date":"2020/2/7 0:00:00","address":"新洲花园","longitude":114.04825,"latitude":22.52627,"F6":"","F7":""}},
{"type":"Feature","geometry":{"type":"Point","coordinates":[12692395.978963425,2578132.520138546]},"properties":{"name":"金地香蜜山","date":"2020/2/7 0:00:00","address":"广东省深圳市福田区侨香路","longitude":114.017733,"latitude":22.553682,"F6":"","F7":""}},
{"type":"Feature","geometry":{"type":"Point","coordinates":[12693298.223436303,2574619.6852251175]},"properties":{"name":"下沙村四坊","date":"2020/2/7 0:00:00","address":"福荣路68万科金域蓝湾附近","longitude":114.025838,"latitude":22.524536,"F6":"","F7":""}},
{"type":"Feature","geometry":{"type":"Point","coordinates":[12704522.901651463,2577636.1513172756]},"properties":{"name":"东方颐园","date":"2020/2/7 0:00:00","address":"深圳市罗湖区东门中兴路88","longitude":114.126671,"latitude":22.549564,"F6":"","F7":""}},
{"type":"Feature","geometry":{"type":"Point","coordinates":[12706216.29374541,2578892.0485631684]},"properties":{"name":"天景花园","date":"2020/2/7 0:00:00","address":"天景花园","longitude":114.141883,"latitude":22.559983,"F6":"","F7":""}},
{"type":"Feature","geometry":{"type":"Point","coordinates":[12678443.416626375,2597746.3895856817]},"properties":{"name":"玉律村一区","date":"2020/2/7 0:00:00","address":"光明办事处公明镇玉律村","longitude":113.892395,"latitude":22.716305,"F6":"","F7":""}},
{"type":"Feature","geometry":{"type":"Point","coordinates":[12696849.092553629,2573233.6054208665]},"properties":{"name":"益田花园","date":"2020/2/3 0:00:00","address":"深圳市福田区福保街道益田社区益田路1006号","longitude":114.057736,"latitude":22.513034,"F6":"","F7":""}},
{"type":"Feature","geometry":{"type":"Point","coordinates":[12706091.059318267,2583386.886748483]},"properties":{"name":"笔架山公园员工宿舍","date":"2020/2/3 0:00:00","address":"龙山工业区26号","longitude":114.140758,"latitude":22.597266,"F6":"","F7":""}},
{"type":"Feature","geometry":{"type":"Point","coordinates":[12701056.301388668,2577376.5218511736]},"properties":{"name":"上步中路盛夏公寓","date":"2020/2/3 0:00:00","address":"广东省深圳市福田区上步中路1039-1","longitude":114.09553,"latitude":22.54741,"F6":"","F7":""}},
{"type":"Feature","geometry":{"type":"Point","coordinates":[12696391.124168504,2578899.763360944]},"properties":{"name":"莲花北村","date":"2020/2/3 0:00:00","address":"广东省深圳市福田区莲花路1116号","longitude":114.053622,"latitude":22.560047,"F6":"","F7":""}},
{"type":"Feature","geometry":{"type":"Point","coordinates":[12694004.990883349,2574053.646524412]},"properties":{"name":"上沙东村八巷","date":"2020/2/3 0:00:00","address":"广东省深圳市福田区上沙东村八巷12号楼(金海湾花园)","longitude":114.032187,"latitude":22.519839,"F6":"","F7":""}},
{"type":"Feature","geometry":{"type":"Point","coordinates":[12695056.626112875,2574554.1264256877]},"properties":{"name":"新洲四街香江西苑","date":"2020/2/3 0:00:00","address":"新洲四街49号","longitude":114.041634,"latitude":22.523992,"F6":"","F7":""}},
{"type":"Feature","geometry":{"type":"Point","coordinates":[12687217.952849174,2577447.5157640763]},"properties":{"name":"白石洲新堂花园","date":"2020/2/3 0:00:00","address":"深圳市南山区香山西街9号","longitude":113.971218,"latitude":22.547999,"F6":"","F7":""}},
{"type":"Feature","geometry":{"type":"Point","coordinates":[12686758.425991181,2582205.160410612]},"properties":{"name":"哈尔滨工业大学（深圳）宿舍楼","date":"2020/2/3 0:00:00","address":"广东省深圳市南山区夏青路","longitude":113.96709,"latitude":22.587465,"F6":"","F7":""}},
{"type":"Feature","geometry":{"type":"Point","coordinates":[12682210.35687533,2574788.1628827685]},"properties":{"name":"南山街道学府花园","date":"2020/2/3 0:00:00","address":"深圳市南山区学府路103号","longitude":113.926234,"latitude":22.525934,"F6":"","F7":""}},
{"type":"Feature","geometry":{"type":"Point","coordinates":[12689445.67849893,2576042.639915957]},"properties":{"name":"沙河街道华侨城东组团小区","date":"2020/2/3 0:00:00","address":"深圳市南山区汕头街2号","longitude":113.99123,"latitude":22.536343,"F6":"","F7":""}},
{"type":"Feature","geometry":{"type":"Point","coordinates":[12683126.293645578,2570246.0086540007]},"properties":{"name":"蛇口街道豪方泽公寓","date":"2020/2/3 0:00:00","address":"广东省深圳市南山区后海大道1021号","longitude":113.934462,"latitude":22.488239,"F6":"","F7":""}},
{"type":"Feature","geometry":{"type":"Point","coordinates":[12684592.260019835,2593357.2039615456]},"properties":{"name":"宏发世纪城","date":"2020/2/3 0:00:00","address":"广东省深圳市宝安区宝石东路209号","longitude":113.947631,"latitude":22.67993,"F6":"","F7":""}},
{"type":"Feature","geometry":{"type":"Point","coordinates":[12679743.40563986,2579876.5580105903]},"properties":{"name":"泰华商业城","date":"2020/2/3 0:00:00","address":"新安街道前进一路211号","longitude":113.904073,"latitude":22.56815,"F6":"","F7":""}},
{"type":"Feature","geometry":{"type":"Point","coordinates":[12679854.391172182,2578995.113735247]},"properties":{"name":"新安街道甲岸村","date":"2020/2/3 0:00:00","address":"深圳市宝安区宝民一路北侧","longitude":113.90507,"latitude":22.560838,"F6":"","F7":""}},
{"type":"Feature","geometry":{"type":"Point","coordinates":[12671688.104647078,2605873.5958983884]},"properties":{"name":"满京华云著花园","date":"2020/2/3 0:00:00","address":"广东省深圳市宝安区107国道与松福大道交汇处","longitude":113.831711,"latitude":22.783633,"F6":"","F7":""}},
{"type":"Feature","geometry":{"type":"Point","coordinates":[12681611.124056391,2594807.346440388]},"properties":{"name":"星曜名城B栋","date":"2020/2/3 0:00:00","address":"深圳市宝安区松白路348号","longitude":113.920851,"latitude":22.691949,"F6":"","F7":""}},
{"type":"Feature","geometry":{"type":"Point","coordinates":[12703511.341438623,2584096.2523294156]},"properties":{"name":"布吉新三村","date":"2020/2/3 0:00:00","address":"吉华路117号","longitude":114.117584,"latitude":22.603149,"F6":"","F7":""}},
{"type":"Feature","geometry":{"type":"Point","coordinates":[12704869.661865283,2586642.04289632]},"properties":{"name":"布吉慢城","date":"2020/2/3 0:00:00","address":"深圳市龙岗区南湾街道下李朗社区科技园路8号","longitude":114.129786,"latitude":22.62426,"F6":"","F7":""}},
{"type":"Feature","geometry":{"type":"Point","coordinates":[12702536.739296729,2584588.3525727694]},"properties":{"name":"西环路八约1街龙富花园","date":"2020/2/3 0:00:00","address":"广东省深圳市龙岗区吉华街道翠湖社区八约一街5号","longitude":114.108829,"latitude":22.60723,"F6":"","F7":""}},
{"type":"Feature","geometry":{"type":"Point","coordinates":[12717671.40330651,2595999.504905212]},"properties":{"name":"华策中心城","date":"2020/2/3 0:00:00","address":"广东省深圳市龙岗区怡翠路","longitude":114.244786,"latitude":22.701829,"F6":"","F7":""}},
{"type":"Feature","geometry":{"type":"Point","coordinates":[12706778.457173916,2585800.2764723576]},"properties":{"name":"金龙豪庭B栋","date":"2020/2/3 0:00:00","address":"深圳市龙岗区金坑北路3","longitude":114.146933,"latitude":22.61728,"F6":"","F7":""}},
{"type":"Feature","geometry":{"type":"Point","coordinates":[12684000.596926268,2607767.1557898843]},"properties":{"name":"新陂头村新美一村","date":"2020/2/3 0:00:00","address":"深圳市光明区康弘路","longitude":113.942316,"latitude":22.799315,"F6":"","F7":""}},
{"type":"Feature","geometry":{"type":"Point","coordinates":[12679988.308519606,2605428.3113059327]},"properties":{"name":"宏发上域","date":"2020/2/3 0:00:00","address":"光明新区公明街道民生路与华发路交汇处西南角(宏发雍景城旁)","longitude":113.906273,"latitude":22.779945,"F6":"","F7":""}},
{"type":"Feature","geometry":{"type":"Point","coordinates":[12676490.872757863,2605388.709571482]},"properties":{"name":"薯田埔村福南路华业苑","date":"2020/2/3 0:00:00","address":"深圳市光明区福南路78号","longitude":113.874855,"latitude":22.779617,"F6":"","F7":""}},
{"type":"Feature","geometry":{"type":"Point","coordinates":[12693759.754045133,2590243.4286649674]},"properties":{"name":"南国丽园","date":"2020/2/3 0:00:00","address":"东环一路与建设路交汇处","longitude":114.029984,"latitude":22.654119,"F6":"","F7":""}},
{"type":"Feature","geometry":{"type":"Point","coordinates":[12696741.557925522,2582778.469846187]},"properties":{"name":"星河丹堤","date":"2020/2/3 0:00:00","address":"南坪快速与梅观路交汇处东北","longitude":114.05677,"latitude":22.59222,"F6":"","F7":""}},
{"type":"Feature","geometry":{"type":"Point","coordinates":[12704515.220606599,2577625.18267381]},"properties":{"name":"中兴路88号汉庭酒店","date":"2020/2/3 0:00:00","address":"广东省深圳市罗湖区中兴路88号","longitude":114.126602,"latitude":22.549473,"F6":"","F7":""}},
{"type":"Feature","geometry":{"type":"Point","coordinates":[12682710.070069503,2573392.3082412197]},"properties":{"name":"西海湾花园","date":"2020/2/2 0:00:00","address":"深圳市南山区后海大道2491号","longitude":113.930723,"latitude":22.514351,"F6":"","F7":""}},
{"type":"Feature","geometry":{"type":"Point","coordinates":[12683382.551113384,2570897.101269426]},"properties":{"name":"后海雅园","date":"2020/2/2 0:00:00","address":"广东省深圳市南山区招商东路休闲公园(湾厦地铁站西)","longitude":113.936764,"latitude":22.493643,"F6":"","F7":""}},
{"type":"Feature","geometry":{"type":"Point","coordinates":[12682348.170404932,2571025.2986664283]},"properties":{"name":"雍景轩赏湖阁","date":"2020/2/2 0:00:00","address":"深圳市南山区工业7路35号","longitude":113.927472,"latitude":22.494707,"F6":"","F7":""}},
{"type":"Feature","geometry":{"type":"Point","coordinates":[12686608.589956572,2582228.4299980826]},"properties":{"name":"桑泰丹华府三期","date":"2020/2/2 0:00:00","address":"广东省深圳市南山区丽山路与学苑大道交汇处","longitude":113.965744,"latitude":22.587658,"F6":"","F7":""}},
{"type":"Feature","geometry":{"type":"Point","coordinates":[12677756.575368183,2570999.153064645]},"properties":{"name":"佳兆业前海广场","date":"2020/2/2 0:00:00","address":"区前海路9号(前海路与棉山路交汇处东北角)","longitude":113.886225,"latitude":22.49449,"F6":"","F7":""}},
{"type":"Feature","geometry":{"type":"Point","coordinates":[12682462.606841467,2574662.3467883933]},"properties":{"name":"阳光华艺大厦B座","date":"2020/2/2 0:00:00","address":"深圳市南山区南海大道3001号","longitude":113.9285,"latitude":22.52489,"F6":"","F7":""}},
{"type":"Feature","geometry":{"type":"Point","coordinates":[12716333.231707683,2599334.6269111773]},"properties":{"name":"回龙埔万科翰邻城","date":"2020/2/2 0:00:00","address":"龙平西路28-2","longitude":114.232765,"latitude":22.729465,"F6":"","F7":""}},
{"type":"Feature","geometry":{"type":"Point","coordinates":[12707922.487580799,2585260.266011138]},"properties":{"name":"大族河山","date":"2020/2/2 0:00:00","address":"深圳市龙岗区沙塘北路47号","longitude":114.15721,"latitude":22.612802,"F6":"","F7":""}},
{"type":"Feature","geometry":{"type":"Point","coordinates":[12697753.674735814,2589871.3010657905]},"properties":{"name":"华创云轩B座","date":"2020/2/2 0:00:00","address":"广东省深圳市龙岗区布吉新区坂田华为单身公寓北公交站","longitude":114.065862,"latitude":22.651034,"F6":"","F7":""}},
{"type":"Feature","geometry":{"type":"Point","coordinates":[12702457.925097246,2585110.614592906]},"properties":{"name":"秀丽山庄","date":"2020/2/2 0:00:00","address":"广东省深圳市龙岗区吉华街道翠湖社区布吉下水径街","longitude":114.108121,"latitude":22.611561,"F6":"","F7":""}},
{"type":"Feature","geometry":{"type":"Point","coordinates":[12717367.946374606,2599676.5523952264]},"properties":{"name":"中央悦城","date":"2020/2/2 0:00:00","address":"广东省深圳市龙岗区长兴北路3号","longitude":114.24206,"latitude":22.732298,"F6":"","F7":""}},
{"type":"Feature","geometry":{"type":"Point","coordinates":[12700711.767564664,2577259.726073113]},"properties":{"name":"福华路维也纳酒店","date":"2020/2/2 0:00:00","address":"深圳市福田区福华路73号","longitude":114.092435,"latitude":22.546441,"F6":"","F7":""}},
{"type":"Feature","geometry":{"type":"Point","coordinates":[12701689.709291283,2579463.676556061]},"properties":{"name":"八卦四路意馨居","date":"2020/2/2 0:00:00","address":"深圳市福田区八卦四路32号","longitude":114.10122,"latitude":22.564725,"F6":"","F7":""}},
{"type":"Feature","geometry":{"type":"Point","coordinates":[12694178.426650004,2578542.7166275787]},"properties":{"name":"景田天健花园","date":"2020/2/2 0:00:00","address":"深圳市福田区景田北六街2号","longitude":114.033745,"latitude":22.557085,"F6":"","F7":""}},
{"type":"Feature","geometry":{"type":"Point","coordinates":[12696288.487597993,2586305.3311990723]},"properties":{"name":"春华四季园","date":"2020/2/2 0:00:00","address":"深圳市龙华区民治街道民新社区民康路与华南路交叉口","longitude":114.0527,"latitude":22.621468,"F6":"","F7":""}},
{"type":"Feature","geometry":{"type":"Point","coordinates":[12673886.330631772,2584137.1294953995]},"properties":{"name":"万象新天2期","date":"2020/2/2 0:00:00","address":"深圳市宝安区航城大道4-10号","longitude":113.851458,"latitude":22.603488,"F6":"","F7":""}},
{"type":"Feature","geometry":{"type":"Point","coordinates":[12686592.89390837,2575680.8336865106]},"properties":{"name":"沙河街道沙河东路世纪村","date":"2020/1/31 0:00:00","address":"沙河东路118号西门","longitude":113.965603,"latitude":22.533341,"F6":"","F7":""}},
{"type":"Feature","geometry":{"type":"Point","coordinates":[12680665.687621083,2573144.795162987]},"properties":{"name":"鸿丰大酒店","date":"2020/1/31 0:00:00","address":"广东省深圳市南山区东滨路4096号(蛇口与南新路交汇处)","longitude":113.912358,"latitude":22.512297,"F6":"","F7":""}},
{"type":"Feature","geometry":{"type":"Point","coordinates":[12685216.985002166,2576576.445016524]},"properties":{"name":"科技园华润城","date":"2020/1/31 0:00:00","address":"广东省深圳市南山区深南大道9672号","longitude":113.953243,"latitude":22.540772,"F6":"","F7":""}},
{"type":"Feature","geometry":{"type":"Point","coordinates":[12686954.682253448,2577964.1291523757]},"properties":{"name":"华侨城香山美墅","date":"2020/1/31 0:00:00","address":"沙河东路376号","longitude":113.968853,"latitude":22.552285,"F6":"","F7":""}},
{"type":"Feature","geometry":{"type":"Point","coordinates":[12685026.628672909,2576753.9820950986]},"properties":{"name":"大冲宿禾服务式公寓","date":"2020/1/31 0:00:00","address":"广东省深圳市南山区大冲新城花园2栋2D-615号(大冲郑氏祠堂旁)","longitude":113.951533,"latitude":22.542245,"F6":"","F7":""}},
{"type":"Feature","geometry":{"type":"Point","coordinates":[12689926.356060175,2575825.338295777]},"properties":{"name":"锦绣花园","date":"2020/1/31 0:00:00","address":"广东省深圳市南山区深南大道9002号","longitude":113.995548,"latitude":22.53454,"F6":"","F7":""}},
{"type":"Feature","geometry":{"type":"Point","coordinates":[12683131.525661645,2570069.384286204]},"properties":{"name":"蛇口街道东角头港湾花园","date":"2020/1/31 0:00:00","address":"蛇口新街22号","longitude":113.934509,"latitude":22.486773,"F6":"","F7":""}},
{"type":"Feature","geometry":{"type":"Point","coordinates":[12683131.525661645,2570069.384286204]},"properties":{"name":"蔚蓝海岸","date":"2020/1/31 0:00:00","address":"蛇口新街22号","longitude":113.934509,"latitude":22.486773,"F6":"","F7":""}},
{"type":"Feature","geometry":{"type":"Point","coordinates":[12682785.989962222,2570960.2359545245]},"properties":{"name":"蛇口街道四海公寓","date":"2020/1/31 0:00:00","address":"广东省深圳市南山区蛇口四海公寓","longitude":113.931405,"latitude":22.494167,"F6":"","F7":""}},
{"type":"Feature","geometry":{"type":"Point","coordinates":[12683639.921776097,2571850.6532592643]},"properties":{"name":"宝能太古城北区","date":"2020/1/31 0:00:00","address":"中心路2233号","longitude":113.939076,"latitude":22.501557,"F6":"","F7":""}},
{"type":"Feature","geometry":{"type":"Point","coordinates":[12683246.296056654,2572142.368650983]},"properties":{"name":"蓝月湾畔","date":"2020/1/31 0:00:00","address":"广东省深圳市南山区海月路172号","longitude":113.93554,"latitude":22.503978,"F6":"","F7":""}},
{"type":"Feature","geometry":{"type":"Point","coordinates":[12686585.101544015,2582862.0263757496]},"properties":{"name":"丽山路西湖林语","date":"2020/1/31 0:00:00","address":"深圳市南山区丽山路16号","longitude":113.965533,"latitude":22.592913,"F6":"","F7":""}},
{"type":"Feature","geometry":{"type":"Point","coordinates":[12683068.630149346,2587867.504484323]},"properties":{"name":"西丽阳光工业区","date":"2020/1/31 0:00:00","address":"广东省深圳市南山区西丽阳光工业区(松白路北)","longitude":113.933944,"latitude":22.634421,"F6":"","F7":""}},
{"type":"Feature","geometry":{"type":"Point","coordinates":[12683207.111595893,2570679.023375793]},"properties":{"name":"蛇口街道海境界","date":"2020/1/31 0:00:00","address":"深圳市南山区后海大道1012","longitude":113.935188,"latitude":22.491833,"F6":"","F7":""}},
{"type":"Feature","geometry":{"type":"Point","coordinates":[12682729.884938864,2577002.272021964]},"properties":{"name":"南头街道麒麟花园","date":"2020/1/31 0:00:00","address":"玉泉路3号","longitude":113.930901,"latitude":22.544305,"F6":"","F7":""}},
{"type":"Feature","geometry":{"type":"Point","coordinates":[12683072.415012034,2573751.654611682]},"properties":{"name":"中洲万豪酒店","date":"2020/1/31 0:00:00","address":"深圳市 海德一道88号","longitude":113.933978,"latitude":22.517333,"F6":"","F7":""}},
{"type":"Feature","geometry":{"type":"Point","coordinates":[12686192.477699988,2582560.4773014067]},"properties":{"name":"西丽街道德意名居","date":"2020/1/31 0:00:00","address":"西丽湖路4221","longitude":113.962006,"latitude":22.590412,"F6":"","F7":""}},
{"type":"Feature","geometry":{"type":"Point","coordinates":[12682837.308247479,2573571.136921283]},"properties":{"name":"海岸明珠","date":"2020/1/31 0:00:00","address":"广东省深圳市南山区海德一道201号","longitude":113.931866,"latitude":22.515835,"F6":"","F7":""}},
{"type":"Feature","geometry":{"type":"Point","coordinates":[12682831.074355993,2569579.881916282]},"properties":{"name":"半岛城邦","date":"2020/1/31 0:00:00","address":"广东省深圳市南山区金世纪路2号","longitude":113.93181,"latitude":22.48271,"F6":"","F7":""}},
{"type":"Feature","geometry":{"type":"Point","coordinates":[12682600.643010052,2575440.2766693304]},"properties":{"name":"南山街道友邻公寓","date":"2020/1/31 0:00:00","address":"广东省深圳市南山区桃园路5号","longitude":113.92974,"latitude":22.531345,"F6":"","F7":""}},
{"type":"Feature","geometry":{"type":"Point","coordinates":[12682009.202555466,2573742.7371364445]},"properties":{"name":"南山街道现代城华庭","date":"2020/1/31 0:00:00","address":"创业路28号","longitude":113.924427,"latitude":22.517259,"F6":"","F7":""}},
{"type":"Feature","geometry":{"type":"Point","coordinates":[12680714.000280086,2574794.3090956453]},"properties":{"name":"南山街道阳光棕榈园","date":"2020/1/31 0:00:00","address":"深圳市南山区前海路2057号","longitude":113.912792,"latitude":22.525985,"F6":"","F7":""}},
{"type":"Feature","geometry":{"type":"Point","coordinates":[12694722.222362531,2578330.565549114]},"properties":{"name":"莲花街道景蜜村","date":"2020/1/31 0:00:00","address":"深圳市福田区景田西路70号","longitude":114.03863,"latitude":22.555325,"F6":"","F7":""}},
{"type":"Feature","geometry":{"type":"Point","coordinates":[12695192.435891643,2577326.7419197937]},"properties":{"name":"香蜜新村东区","date":"2020/1/31 0:00:00","address":"景田南六街与红荔西路交叉口北100米","longitude":114.042854,"latitude":22.546997,"F6":"","F7":""}},
{"type":"Feature","geometry":{"type":"Point","coordinates":[12698005.70206297,2577292.7518343176]},"properties":{"name":"莲花街道福莲花园","date":"2020/1/31 0:00:00","address":"福田红荔路5011号","longitude":114.068126,"latitude":22.546715,"F6":"","F7":""}},
{"type":"Feature","geometry":{"type":"Point","coordinates":[12691822.460946856,2577871.5570244645]},"properties":{"name":"侨香村","date":"2020/1/31 0:00:00","address":"安托山九路1号","longitude":114.012581,"latitude":22.551517,"F6":"","F7":""}},
{"type":"Feature","geometry":{"type":"Point","coordinates":[12696006.18136934,2579357.474254912]},"properties":{"name":"碧华庭居翠园","date":"2020/1/31 0:00:00","address":"广东省深圳市福田区上梅林碧华庭居(北环大道北)","longitude":114.050164,"latitude":22.563844,"F6":"","F7":""}},
{"type":"Feature","geometry":{"type":"Point","coordinates":[12699814.421149379,2577689.7892933446]},"properties":{"name":"福华新村","date":"2020/1/31 0:00:00","address":"深圳市福田区福华路253号","longitude":114.084374,"latitude":22.550009,"F6":"","F7":""}},
{"type":"Feature","geometry":{"type":"Point","coordinates":[12698300.142116118,2574459.042522707]},"properties":{"name":"福港路西阳光城市","date":"2020/1/31 0:00:00","address":"广东省深圳市福田区福港路28号","longitude":114.070771,"latitude":22.523203,"F6":"","F7":""}},
{"type":"Feature","geometry":{"type":"Point","coordinates":[12691652.030806452,2576102.4194505573]},"properties":{"name":"越众小区","date":"2020/1/31 0:00:00","address":"深圳市福田区竹林子路8号","longitude":114.01105,"latitude":22.536839,"F6":"","F7":""}},
{"type":"Feature","geometry":{"type":"Point","coordinates":[12694819.07031952,2573696.462747018]},"properties":{"name":"沙嘴村一坊","date":"2020/1/31 0:00:00","address":"深圳市福田区沙嘴二坊165-2","longitude":114.0395,"latitude":22.516875,"F6":"","F7":""}},
{"type":"Feature","geometry":{"type":"Point","coordinates":[12691142.744136073,2575902.3516901415]},"properties":{"name":"竹子林越海家园依山阁","date":"2020/1/31 0:00:00","address":"广东省深圳市福田区紫竹六道64号","longitude":114.006475,"latitude":22.535179,"F6":"","F7":""}},
{"type":"Feature","geometry":{"type":"Point","coordinates":[12696615.09898398,2574654.6339553003]},"properties":{"name":"福保街道明月花园","date":"2020/1/31 0:00:00","address":"益田路3009号","longitude":114.055634,"latitude":22.524826,"F6":"","F7":""}},
{"type":"Feature","geometry":{"type":"Point","coordinates":[12699632.413781932,2576980.5766378865]},"properties":{"name":"华强北街道航苑大厦西座","date":"2020/1/31 0:00:00","address":"深圳市福田区振华路175号西门航苑大厦","longitude":114.082739,"latitude":22.544125,"F6":"","F7":""}},
{"type":"Feature","geometry":{"type":"Point","coordinates":[12695484.760874465,2572816.0687758676]},"properties":{"name":"福保街道红树福苑","date":"2020/1/31 0:00:00","address":"桂花路西段21号","longitude":114.04548,"latitude":22.509569,"F6":"","F7":""}},
{"type":"Feature","geometry":{"type":"Point","coordinates":[12696866.23575521,2573432.436073106]},"properties":{"name":"益田花园豪园居","date":"2020/1/31 0:00:00","address":"深圳市福田区福保街道益田社区益田路1006号","longitude":114.05789,"latitude":22.514684,"F6":"","F7":""}},
{"type":"Feature","geometry":{"type":"Point","coordinates":[12701612.787523143,2578196.043881217]},"properties":{"name":"园岭新村","date":"2020/1/31 0:00:00","address":"深圳市福田区红岭中路与红荔路交叉口","longitude":114.100529,"latitude":22.554209,"F6":"","F7":""}},
{"type":"Feature","geometry":{"type":"Point","coordinates":[12700177.656647837,2576265.4885067814]},"properties":{"name":"南园街道南园路232号工行公寓","date":"2020/1/31 0:00:00","address":"深圳市福田区南园路234号工商银行公寓首层","longitude":114.087637,"latitude":22.538192,"F6":"","F7":""}},
{"type":"Feature","geometry":{"type":"Point","coordinates":[12698303.481700841,2580429.774964702]},"properties":{"name":"梅东三路半山御景","date":"2020/1/31 0:00:00","address":"梅东三路4号","longitude":114.070801,"latitude":22.572739,"F6":"","F7":""}},
{"type":"Feature","geometry":{"type":"Point","coordinates":[12696520.588736296,2583032.7579081953]},"properties":{"name":"民治街道丰泽湖山庄","date":"2020/1/31 0:00:00","address":"广东省深圳市龙华区民治民乐新村","longitude":114.054785,"latitude":22.594329,"F6":"","F7":""}},
{"type":"Feature","geometry":{"type":"Point","coordinates":[12692832.907964788,2586723.4480758896]},"properties":{"name":"龙华区圆酒店","date":"2020/1/31 0:00:00","address":"广东省深圳市龙华区民治街道腾龙路152号润达圆庭A座","longitude":114.021658,"latitude":22.624935,"F6":"","F7":""}},
{"type":"Feature","geometry":{"type":"Point","coordinates":[12698375.950689347,2600050.7112353654]},"properties":{"name":"观澜湖高尔夫大宅昆士顿区","date":"2020/1/31 0:00:00","address":"广东省深圳市宝安区观澜高尔夫大道1号","longitude":114.071452,"latitude":22.735398,"F6":"","F7":""}},
{"type":"Feature","geometry":{"type":"Point","coordinates":[12694042.83951022,2587407.9909990365]},"properties":{"name":"民治街道金地梅陇镇","date":"2020/1/31 0:00:00","address":"广东省深圳市龙华区民安路152号","longitude":114.032527,"latitude":22.630611,"F6":"","F7":""}},
{"type":"Feature","geometry":{"type":"Point","coordinates":[12694483.33073529,2590363.0902727093]},"properties":{"name":"龙华街道新华苑2期","date":"2020/1/31 0:00:00","address":"广东省深圳市龙华区东环二路龙华文化广场","longitude":114.036484,"latitude":22.655111,"F6":"","F7":""}},
{"type":"Feature","geometry":{"type":"Point","coordinates":[12691328.091088243,2588119.940805129]},"properties":{"name":"民治街道翔龙御庭","date":"2020/1/31 0:00:00","address":"广东省深圳市龙华区新区大道","longitude":114.00814,"latitude":22.636514,"F6":"","F7":""}},
{"type":"Feature","geometry":{"type":"Point","coordinates":[12692748.193832295,2587780.3044892023]},"properties":{"name":"金地上塘道1期","date":"2020/1/31 0:00:00","address":"上塘路8","longitude":114.020897,"latitude":22.633698,"F6":"","F7":""}},
{"type":"Feature","geometry":{"type":"Point","coordinates":[12697308.953370094,2594632.9944379684]},"properties":{"name":"观湖街道招商观园","date":"2020/1/31 0:00:00","address":"龙华区观澜街道环观南路北侧(观澜高新科技园站旁)","longitude":114.061867,"latitude":22.690504,"F6":"","F7":""}},
{"type":"Feature","geometry":{"type":"Point","coordinates":[12692736.839244233,2586722.6038719746]},"properties":{"name":"华业玫瑰四季2期","date":"2020/1/31 0:00:00","address":"广东省深圳市龙华区天英街与腾龙路交叉口南100米","longitude":114.020795,"latitude":22.624928,"F6":"","F7":""}},
{"type":"Feature","geometry":{"type":"Point","coordinates":[12694479.21191413,2589099.0875848117]},"properties":{"name":"民治街道梅龙苑","date":"2020/1/31 0:00:00","address":"深圳市龙华区梅龙大道966号","longitude":114.036447,"latitude":22.644632,"F6":"","F7":""}},
{"type":"Feature","geometry":{"type":"Point","coordinates":[12697532.70554659,2594941.761626789]},"properties":{"name":"观湖街道懿花园","date":"2020/1/31 0:00:00","address":"广东省深圳市龙华区观湖街道大与社区博强路交汇处","longitude":114.063877,"latitude":22.693063,"F6":"","F7":""}},
{"type":"Feature","geometry":{"type":"Point","coordinates":[12695184.866166268,2597223.366744845]},"properties":{"name":"观澜街道华盛峰荟名庭2期","date":"2020/1/31 0:00:00","address":"广东省深圳市龙华区福城街道悦兴路与碧澜路交汇处","longitude":114.042786,"latitude":22.711971,"F6":"","F7":""}},
{"type":"Feature","geometry":{"type":"Point","coordinates":[12717678.639073411,2600545.338102091]},"properties":{"name":"嘉霖·龙禧（龙禧雅苑）","date":"2020/1/31 0:00:00","address":"深圳市龙岗区对面岭南路一巷12号","longitude":114.244851,"latitude":22.739496,"F6":"","F7":""}},
{"type":"Feature","geometry":{"type":"Point","coordinates":[12704327.313306138,2586559.6733214385]},"properties":{"name":"华浩源","date":"2020/1/31 0:00:00","address":"广东省深圳市龙岗区布吉新区布吉街道景芬路","longitude":114.124914,"latitude":22.623577,"F6":"","F7":""}},
{"type":"Feature","geometry":{"type":"Point","coordinates":[12698353.018874245,2588161.9133899217]},"properties":{"name":"坂田街道荔园新村","date":"2020/1/31 0:00:00","address":"广东省深圳市龙岗区龙园路","longitude":114.071246,"latitude":22.636862,"F6":"","F7":""}},
{"type":"Feature","geometry":{"type":"Point","coordinates":[12718738.06666729,2598657.9177548545]},"properties":{"name":"龙城街道万象天成","date":"2020/1/31 0:00:00","address":"广东省深圳市龙岗区龙岗中心城龙城大道万象天成","longitude":114.254368,"latitude":22.723858,"F6":"","F7":""}},
{"type":"Feature","geometry":{"type":"Point","coordinates":[12703792.86843084,2583176.6029986185]},"properties":{"name":"布吉街道百合山庄","date":"2020/1/31 0:00:00","address":"广东省深圳市龙岗区荣华路284号","longitude":114.120113,"latitude":22.595522,"F6":"","F7":""}},
{"type":"Feature","geometry":{"type":"Point","coordinates":[12705096.197029047,2595568.9665043927]},"properties":{"name":"平湖特力商厦","date":"2020/1/31 0:00:00","address":"深圳市龙岗区双拥街79号","longitude":114.131821,"latitude":22.698261,"F6":"","F7":""}},
{"type":"Feature","geometry":{"type":"Point","coordinates":[12713447.719186831,2596670.312843061]},"properties":{"name":"中海康城","date":"2020/1/31 0:00:00","address":"深圳市龙岗区清辉路149号","longitude":114.206844,"latitude":22.707388,"F6":"","F7":""}},
{"type":"Feature","geometry":{"type":"Point","coordinates":[12715411.283684934,2598818.915777943]},"properties":{"name":"龙城街道东方沁园","date":"2020/1/31 0:00:00","address":"春生路57号","longitude":114.224483,"latitude":22.725192,"F6":"","F7":""}},
{"type":"Feature","geometry":{"type":"Point","coordinates":[12705801.962600676,2586585.2404077672]},"properties":{"name":"布澜路尚峰花园","date":"2020/1/31 0:00:00","address":"广东省深圳市龙岗区布吉新区布澜路鸿荣源(宇宏健康花城东)","longitude":114.138161,"latitude":22.623789,"F6":"","F7":""}},
{"type":"Feature","geometry":{"type":"Point","coordinates":[12718337.093861453,2599983.7241099677]},"properties":{"name":"龙岗街道宝能悦澜山","date":"2020/1/31 0:00:00","address":"深圳市龙岗区回龙路2号","longitude":114.250766,"latitude":22.734843,"F6":"","F7":""}},
{"type":"Feature","geometry":{"type":"Point","coordinates":[12675339.272625607,2585544.9812605884]},"properties":{"name":"桃源居","date":"2020/1/31 0:00:00","address":"广东省深圳市宝安区西乡街道桃源社区汇江二路","longitude":113.86451,"latitude":22.615163,"F6":"","F7":""}},
{"type":"Feature","geometry":{"type":"Point","coordinates":[12672980.078657225,2584217.678305958]},"properties":{"name":"航城街道南航明珠花园","date":"2020/1/31 0:00:00","address":"广东省深圳市宝安区西乡南航明珠花园(航空路南80米)","longitude":113.843317,"latitude":22.604156,"F6":"","F7":""}},
{"type":"Feature","geometry":{"type":"Point","coordinates":[12679762.886550749,2577801.0434446465]},"properties":{"name":"新安街道35小区安乐花园","date":"2020/1/31 0:00:00","address":"深圳市宝安区龙泉一路42","longitude":113.904248,"latitude":22.550932,"F6":"","F7":""}},
{"type":"Feature","geometry":{"type":"Point","coordinates":[12683962.303021437,2595046.857206154]},"properties":{"name":"石岩街道伊隆达工业园","date":"2020/1/31 0:00:00","address":"广东省深圳市宝安区园岭大道","longitude":113.941972,"latitude":22.693934,"F6":"","F7":""}},
{"type":"Feature","geometry":{"type":"Point","coordinates":[12678205.415555062,2579088.8975698827]},"properties":{"name":"宝安大道与裕安一路交汇处卡罗社区","date":"2020/1/31 0:00:00","address":"宝安大道2060-8号","longitude":113.890257,"latitude":22.561616,"F6":"","F7":""}},
{"type":"Feature","geometry":{"type":"Point","coordinates":[12669605.316974336,2605706.733504723]},"properties":{"name":"松岗街道碧头社区华都公寓","date":"2020/1/31 0:00:00","address":"广东省深圳市宝安区碧头路","longitude":113.813001,"latitude":22.782251,"F6":"","F7":""}},
{"type":"Feature","geometry":{"type":"Point","coordinates":[12675086.577381507,2578295.126939623]},"properties":{"name":"前海铂寓","date":"2020/1/31 0:00:00","address":"广东省深圳市宝安区前海宝安中心区新安六路西端","longitude":113.86224,"latitude":22.555031,"F6":"","F7":""}},
{"type":"Feature","geometry":{"type":"Point","coordinates":[12671828.144566495,2588908.512476549]},"properties":{"name":"福永街道星航华府","date":"2020/1/31 0:00:00","address":"广东省深圳市宝安区福永街道兴围社区兴华路2号","longitude":113.832969,"latitude":22.643052,"F6":"","F7":""}},
{"type":"Feature","geometry":{"type":"Point","coordinates":[12674785.235519929,2581260.780262324]},"properties":{"name":"西乡我们家公寓（海湾家2号楼）","date":"2020/1/31 0:00:00","address":"广东省深圳市宝安区西乡盐田新三村下7排18号","longitude":113.859533,"latitude":22.579632,"F6":"","F7":""}},
{"type":"Feature","geometry":{"type":"Point","coordinates":[12677315.972823622,2579420.641035572]},"properties":{"name":"明玉路11号花样年·花郡","date":"2020/1/31 0:00:00","address":"深圳市宝安区明玉路11号","longitude":113.882267,"latitude":22.564368,"F6":"","F7":""}},
{"type":"Feature","geometry":{"type":"Point","coordinates":[12703860.662000732,2576013.111797655]},"properties":{"name":"罗湖村五坊","date":"2020/1/31 0:00:00","address":"深圳市罗湖区人民南路1066号","longitude":114.120722,"latitude":22.536098,"F6":"","F7":""}},
{"type":"Feature","geometry":{"type":"Point","coordinates":[12704769.140365096,2579034.7729015267]},"properties":{"name":"田贝二路金翠园","date":"2020/1/31 0:00:00","address":"田贝二路9号","longitude":114.128883,"latitude":22.561167,"F6":"","F7":""}},
{"type":"Feature","geometry":{"type":"Point","coordinates":[12702177.177341467,2577385.441273503]},"properties":{"name":"红桂路红桂一街50号环保大院","date":"2020/1/31 0:00:00","address":"广东省深圳市罗湖区红桂路红桂一街50号环保大院","longitude":114.105599,"latitude":22.547484,"F6":"","F7":""}},
{"type":"Feature","geometry":{"type":"Point","coordinates":[12702321.224762553,2577702.324935162]},"properties":{"name":"长城大酒店","date":"2020/1/31 0:00:00","address":"深圳市罗湖区红桂路2086号","longitude":114.106893,"latitude":22.550113,"F6":"","F7":""}},
{"type":"Feature","geometry":{"type":"Point","coordinates":[12726897.451383965,2603736.2671706127]},"properties":{"name":"龙田街道东城大厦维也纳酒店","date":"2020/1/31 0:00:00","address":"深圳市坪山区兰竹东路13号","longitude":114.327665,"latitude":22.76593,"F6":"","F7":""}},
{"type":"Feature","geometry":{"type":"Point","coordinates":[12730023.859282894,2595869.3044692725]},"properties":{"name":"龙田街道号金茂园酒店","date":"2020/1/31 0:00:00","address":"广东省深圳市坪山区金牛西路33号","longitude":114.35575,"latitude":22.70075,"F6":"","F7":""}},
{"type":"Feature","geometry":{"type":"Point","coordinates":[12728414.402085004,2596708.204228121]},"properties":{"name":"坪山街道万科金域缇香","date":"2020/1/31 0:00:00","address":"广东省深圳市坪山区行政一路6","longitude":114.341292,"latitude":22.707702,"F6":"","F7":""}},
{"type":"Feature","geometry":{"type":"Point","coordinates":[12727822.73899144,2593844.511971789]},"properties":{"name":"坪山街道易林源酒店","date":"2020/1/31 0:00:00","address":"广东省深圳市坪山区坪联路","longitude":114.335977,"latitude":22.683969,"F6":"","F7":""}},
{"type":"Feature","geometry":{"type":"Point","coordinates":[12715893.185760578,2577660.2582514114]},"properties":{"name":"沙头角街道上东湾","date":"2020/1/31 0:00:00","address":"深圳市盐田区沙盐路3068","longitude":114.228812,"latitude":22.549764,"F6":"","F7":""}},
{"type":"Feature","geometry":{"type":"Point","coordinates":[12680127.123924626,2604660.199525561]},"properties":{"name":"公明街道振明路南庄合众豪庭后面三巷","date":"2020/1/31 0:00:00","address":"广东省深圳市光明区南庄三巷","longitude":113.90752,"latitude":22.773583,"F6":"","F7":""}},
{"type":"Feature","geometry":{"type":"Point","coordinates":[12741542.420953747,2580039.5435281526]},"properties":{"name":"万豪酒店","date":"2020/1/31 0:00:00","address":"深圳市 棕榈大道33号","longitude":114.459223,"latitude":22.569502,"F6":"","F7":""}}
]}